{"generated":"2026-06-08","origin":0,"places":[{"name":"Nivaa Stays","cat":"Stay","lat":11.96232,"lng":79.79309},{"name":"Promenade (Rock) Beach","cat":"Beach","lat":11.931277300000001,"lng":79.83580189999999},{"name":"Paradise Beach","cat":"Beach","lat":11.881845100000001,"lng":79.8237982},{"name":"Serenity Beach","cat":"Beach","lat":11.9733731,"lng":79.8448683},{"name":"Auroville Beach","cat":"Beach","lat":11.9865408,"lng":79.8496571},{"name":"Eden Beach","cat":"Beach","lat":11.8814318,"lng":79.8242184},{"name":"Sri Aurobindo Ashram","cat":"Attraction","lat":11.936707199999999,"lng":79.834115},{"name":"Matrimandir (Auroville)","cat":"Attraction","lat":12.0070941,"lng":79.8106322},{"name":"Sacred Heart Basilica","cat":"Attraction","lat":11.9260633,"lng":79.8269717},{"name":"Manakula Vinayagar Temple","cat":"Attraction","lat":11.9357756,"lng":79.8336621},{"name":"Botanical Garden","cat":"Attraction","lat":11.930213799999999,"lng":79.8224206},{"name":"Bharathi Park (White Town)","cat":"Attraction","lat":11.9330191,"lng":79.8341938},{"name":"Chunnambar Boat House","cat":"Attraction","lat":11.8838125,"lng":79.8006875},{"name":"Arikamedu","cat":"Attraction","lat":11.9012163,"lng":79.82012259999999},{"name":"Ousteri Lake","cat":"Attraction","lat":11.9577385,"lng":79.7455956},{"name":"Caf\u00e9 des Arts","cat":"Food","lat":11.9304882,"lng":79.8312705},{"name":"Villa Shanti","cat":"Food","lat":11.9296296,"lng":79.8331082},{"name":"Surguru","cat":"Food","lat":11.9422576,"lng":79.8298374},{"name":"Baker Street","cat":"Food","lat":11.9292401,"lng":79.8287969},{"name":"Goubert Market","cat":"Shopping","lat":11.9353701,"lng":79.828002},{"name":"Hidesign","cat":"Shopping","lat":11.935632100000001,"lng":79.8313433},{"name":"Pondicherry Gate (entrance)","cat":"Area","lat":11.9321935,"lng":79.81569329999999},{"name":"White Town (French Quarter)","cat":"Area","lat":11.9283798,"lng":79.8336641},{"name":"Beach Road (Promenade)","cat":"Area","lat":11.9324673,"lng":79.8358764},{"name":"Pondicherry Bus Stand","cat":"Area","lat":11.9325271,"lng":79.8158978},{"name":"Puducherry Railway Station","cat":"Area","lat":11.9251138,"lng":79.8278739},{"name":"Auroville","cat":"Area","lat":12.0038196,"lng":79.8011014},{"name":"Mission Street","cat":"Area","lat":11.9353053,"lng":79.831128}],"minutes":[[0,22,30,20,22,30,20,20,19,19,18,20,23,29,19,21,22,17,19,19,18,15,21,22,15,19,13,18],[22,0,24,19,21,24,6,41,6,6,7,4,18,23,31,4,2,8,5,7,6,11,2,4,11,6,34,6],[28,26,0,34,35,0,26,47,23,25,24,24,11,9,36,23,24,27,23,27,26,22,23,26,22,22,40,25],[19,17,32,0,7,32,14,32,19,15,17,15,26,31,30,16,17,11,17,16,14,17,17,16,17,19,24,14],[21,19,34,6,0,34,16,29,21,17,19,17,28,33,32,18,19,13,19,17,16,19,19,18,19,21,20,16],[28,26,0,34,35,0,26,47,23,25,24,24,11,9,36,23,24,27,23,27,26,22,23,26,22,22,40,25],[21,4,25,15,17,25,0,39,7,2,7,3,18,24,31,4,5,4,5,5,2,11,5,3,11,6,32,2],[22,39,47,31,28,47,37,0,36,36,35,37,41,46,28,38,39,34,36,36,35,32,38,39,32,36,8,35],[18,7,21,19,21,21,7,37,0,6,3,5,15,20,27,4,5,8,3,6,7,7,4,7,7,1,30,6],[20,3,24,16,17,24,2,39,6,0,7,1,18,23,31,3,4,5,4,4,4,11,4,3,11,6,32,3],[16,9,22,18,20,22,9,34,4,8,0,7,16,21,25,6,7,7,4,8,8,4,6,9,4,5,27,7],[20,2,23,16,17,23,3,38,5,1,6,0,17,22,30,2,3,5,3,4,3,10,3,2,10,5,31,3],[27,25,16,33,34,16,25,46,21,24,23,23,0,17,35,22,23,26,22,26,25,20,22,25,20,21,39,24],[27,25,9,32,34,9,25,45,21,24,23,23,11,0,35,22,23,26,22,26,25,20,22,25,20,21,38,24],[21,32,37,30,32,37,30,28,27,29,26,30,31,36,0,29,30,27,27,28,27,23,29,32,23,27,23,28],[20,3,22,16,18,22,3,38,4,3,5,2,16,21,29,0,2,5,2,4,3,9,2,3,9,4,31,2],[21,3,23,17,19,23,4,39,5,4,6,2,17,22,30,2,0,6,3,5,4,9,1,3,9,4,32,4],[17,6,26,11,13,26,3,35,7,4,6,4,20,26,27,6,7,0,6,5,3,8,7,6,8,8,28,3],[18,5,22,18,19,22,4,36,3,4,3,3,16,21,27,2,3,7,0,4,3,6,2,5,6,2,29,3],[16,9,26,16,18,26,7,35,6,7,5,7,20,25,27,8,9,5,6,0,5,8,8,10,8,6,27,6],[20,4,24,15,17,24,2,39,6,1,7,2,18,23,31,3,4,4,4,4,0,11,4,4,11,6,32,3],[17,9,23,19,21,23,9,35,5,9,4,8,17,22,26,7,8,8,5,8,8,0,7,9,0,5,28,8],[20,3,22,18,19,22,5,39,4,4,5,3,16,21,29,2,1,7,2,6,5,9,0,3,9,4,32,4],[22,2,25,17,19,25,3,41,7,3,8,2,19,24,32,4,3,6,5,6,5,12,3,0,12,6,34,5],[17,9,23,19,21,23,9,35,5,9,4,8,17,22,26,7,8,8,5,8,8,0,7,9,0,5,28,8],[18,6,21,19,21,21,6,37,1,6,3,5,15,20,27,4,5,8,3,6,6,7,4,6,7,0,30,6],[15,32,40,22,20,40,30,8,30,30,28,30,34,39,23,31,32,28,29,29,28,26,31,32,26,30,0,28],[18,4,24,15,16,24,3,37,6,2,5,3,18,23,29,2,5,4,3,3,0,9,4,4,9,6,29,0]],"km":[[0,7.7,12.8,10.2,11.4,12.8,7.2,9,7.8,7.1,7.3,7.2,11.1,11.7,10.2,8.2,7.7,6.9,7.6,6.8,6.8,6.1,8.2,7.7,6.1,7.9,6.8,6.8],[7.7,0,9.3,7.3,8.5,9.3,1.4,16.5,1.5,1.3,1.8,0.8,7.6,8.2,12.4,0.6,0.4,2.1,1,1.5,1.3,3.3,0.5,0.8,3.3,1.4,14.2,1.2],[11.9,10.1,0,14.9,16.1,0,10.2,20.7,9.1,10.1,9.8,9.8,3.7,2.7,16.6,9.4,9.6,10.6,9.5,10.3,10.1,8.6,9.4,10.1,8.6,9,18.5,10],[9,6.1,14.5,0,2.7,14.5,5.3,13.2,6.6,5.4,6.2,5.6,12.7,13.4,13.8,6,6.1,4.4,6,5.2,5.2,7.7,6.3,5.9,7.7,6.8,10.4,5.2],[10.5,7.6,16,2.5,0,16,6.8,11,8.1,6.9,7.7,7.1,14.3,14.9,15.3,7.5,7.6,5.9,7.6,6.7,6.7,9.3,7.8,7.4,9.3,8.4,8.2,6.7],[11.9,10.1,0,14.9,16.1,0,10.2,20.7,9.1,10.1,9.8,9.8,3.7,2.7,16.6,9.4,9.6,10.6,9.5,10.3,10.1,8.6,9.4,10.1,8.6,9,18.5,10],[7,0.9,9.8,6.1,7.4,9.8,0,15.7,1.9,0.3,2.1,0.6,8,8.7,11.7,0.9,1,1,1.3,0.9,0.5,3.6,1.2,0.7,3.6,1.8,13.5,0.5],[10.1,15.5,20.6,12.9,11,20.6,15,0,15.6,14.9,15.1,15.1,18.9,19.5,11.4,16,15.5,14.7,15.4,14.6,14.6,14,16,15.5,14,15.7,2.4,14.6],[6.8,1.8,8.7,7.5,8.7,8.7,1.9,15.6,0,1.8,0.9,1.5,6.9,7.6,11.5,1.1,1.3,2.2,0.6,1.3,1.8,2.4,1.1,1.9,2.4,0.2,13.3,1.8],[6.4,0.8,9.6,6.3,7.5,9.6,0.3,15.1,1.8,0,2,0.4,7.9,8.5,11.1,0.8,0.9,1.2,1.2,0.8,0.6,3.5,1.1,0.6,3.5,1.7,12.9,0.5],[6,2.5,9.3,7.5,8.7,9.3,2.6,14.8,1.4,2.4,0,2.2,7.5,8.1,10.7,1.8,1.9,2.2,1.2,1.9,2.1,1.6,1.8,2.5,1.6,1.5,12.5,2.1],[6.3,0.4,9.4,6.5,7.7,9.4,0.6,15.1,1.5,0.3,1.7,0,7.6,8.3,11.1,0.5,0.6,1.4,0.9,0.7,0.5,3.2,0.8,0.5,3.2,1.4,12.9,0.5],[12.8,10.9,6.4,15.7,16.9,6.4,11,21.5,10,10.9,10.6,10.6,0,6.8,17.4,10.2,10.4,11.4,10.3,11.1,10.9,9.4,10.2,11,9.4,9.9,19.3,10.9],[10.8,9,2.7,13.8,15,2.7,9.1,19.6,8,9,8.6,8.7,4.1,0,15.5,8.3,8.4,9.5,8.4,9.2,9,7.5,8.3,9,7.5,7.9,17.4,8.9],[11.3,11.6,16.5,14,15.3,16.5,11,11.4,11.5,10.9,11,11.1,14.8,15.4,0,11.9,12,10.7,11.4,10.6,10.6,9.9,11.9,11.6,9.9,11.6,10.5,10.6],[7.3,0.8,9,6.8,8,9,0.9,16,1.2,0.8,1.4,0.5,7.2,7.9,11.9,0,0.3,1.6,0.6,1,0.7,2.9,0.5,0.8,2.9,1.1,13.8,0.6],[7.4,0.6,9.1,7,8.2,9.1,1.1,16.1,1.3,1,1.5,0.4,7.3,8,12,0.3,0,1.8,0.7,1.2,1,3,0.2,0.6,3,1.2,13.9,0.9],[6,1.8,10.5,5.3,6.5,10.5,1,14.7,2.2,1.2,1.8,1.3,8.7,9.4,10.7,1.7,1.8,0,1.8,1,0.9,2.8,2,1.6,2.8,2.4,12.5,0.9],[6.7,1.3,9.1,7.2,8.4,9.1,1.3,15.5,1.1,1.2,0.8,0.9,7.3,8,11.4,0.5,0.7,2.1,0,0.8,0.9,2.3,0.5,1.3,2.3,0.7,13.2,0.8],[5.6,2.1,10.1,6.5,7.7,10.1,1.5,14.4,1.6,1.4,1.2,1.6,8.3,9,10.4,2,2.2,1.3,1.5,0,1.1,2.4,2,2.1,2.4,1.8,12.1,1.2],[6.4,1,9.7,6.3,7.5,9.7,0.4,15.2,1.8,0.3,2,0.5,7.9,8.6,11.2,0.8,0.9,1.1,1.3,0.8,0,3.6,1.1,1,3.6,1.7,12.9,0.5],[6.4,2.7,9.6,7.7,8.9,9.6,2.8,15.1,1.6,2.7,1.2,2.4,7.9,8.5,11,2,2.2,2.5,1.5,2.2,2.3,0,2,2.7,0,1.8,12.9,2.3],[7.2,0.6,9,7.1,8.4,9,1.3,16,1.1,1.1,1.3,0.9,7.2,7.9,11.9,0.5,0.2,2,0.5,1.4,1.2,2.9,0,0.6,2.9,1,13.8,1.1],[6.8,0.4,9.7,6.8,8,9.7,0.7,15.6,1.9,0.6,2,0.5,7.9,8.6,12.6,0.8,0.7,1.6,1.3,1.2,1,3.6,0.7,0,3.6,1.7,13.3,0.9],[6.4,2.7,9.6,7.7,8.9,9.6,2.8,15.1,1.6,2.7,1.2,2.4,7.8,8.5,11,2,2.2,2.4,1.5,2.1,2.3,0,2,2.7,0,1.8,12.9,2.3],[6.9,1.7,8.6,7.6,8.9,8.6,1.8,15.7,0.2,1.7,1,1.4,6.8,7.5,11.6,1,1.2,2.4,0.7,1.3,1.7,2.6,1,1.7,2.6,0,13.5,1.6],[7.8,13.3,18.4,10.2,8.2,18.4,12.7,2.4,13.3,12.6,12.9,12.8,16.6,17.3,10.5,13.7,13.3,12.5,13.2,12.3,12.3,11.7,13.7,13.3,11.7,13.5,0,12.4],[6,0.9,9.7,6.1,7.3,9.7,0.5,14.8,1.8,0.4,1.6,0.6,7.9,8.5,10.8,0.6,1,0.9,0.8,0.4,0.1,3.1,1.1,0.9,3.1,1.7,12.5,0]]}