{"generated":"2026-06-08","origin":0,"places":[{"name":"Nivaa Stays","cat":"Stay","lat":11.96232,"lng":79.79309},{"name":"Promenade (Rock) Beach","cat":"Beach","lat":11.931277300000001,"lng":79.83580189999999},{"name":"Paradise Beach","cat":"Beach","lat":11.881845100000001,"lng":79.8237982},{"name":"Serenity Beach","cat":"Beach","lat":11.9733731,"lng":79.8448683},{"name":"Auroville Beach","cat":"Beach","lat":11.9865408,"lng":79.8496571},{"name":"Eden Beach","cat":"Beach","lat":11.8814318,"lng":79.8242184},{"name":"Veerampattinam Beach","cat":"Beach","lat":11.892355,"lng":79.8270246},{"name":"Sri Aurobindo Ashram","cat":"Attraction","lat":11.936707199999999,"lng":79.834115},{"name":"Matrimandir (Auroville)","cat":"Attraction","lat":12.0070941,"lng":79.8106322},{"name":"Sacred Heart Basilica","cat":"Attraction","lat":11.9260633,"lng":79.8269717},{"name":"Manakula Vinayagar Temple","cat":"Attraction","lat":11.9357756,"lng":79.8336621},{"name":"Botanical Garden","cat":"Attraction","lat":11.930213799999999,"lng":79.8224206},{"name":"Bharathi Park (White Town)","cat":"Attraction","lat":11.9330191,"lng":79.8341938},{"name":"Chunnambar Boat House","cat":"Attraction","lat":11.8838125,"lng":79.8006875},{"name":"Arikamedu","cat":"Attraction","lat":11.9012163,"lng":79.82012259999999},{"name":"Ousteri Lake","cat":"Attraction","lat":11.9577385,"lng":79.7455956},{"name":"Bread & Chocolate","cat":"Breakfast","lat":11.990738,"lng":79.829758},{"name":"Baker Street","cat":"Breakfast","lat":11.9292401,"lng":79.8287969},{"name":"Cr\u00eape In Touch","cat":"Breakfast","lat":11.933866000000002,"lng":79.8294006},{"name":"Auroville Bakery","cat":"Breakfast","lat":11.9900386,"lng":79.8347044},{"name":"Sri Murugan Caf\u00e9","cat":"Breakfast","lat":11.937385299999999,"lng":79.82694959999999},{"name":"Caf\u00e9 des Arts","cat":"Cafe","lat":11.9304882,"lng":79.8312705},{"name":"Coromandel Caf\u00e9","cat":"Cafe","lat":11.9312917,"lng":79.8341738},{"name":"Marc's Caf\u00e9","cat":"Cafe","lat":11.991053700000002,"lng":79.82584949999999},{"name":"La Terrace","cat":"Cafe","lat":11.925072,"lng":79.833281},{"name":"Kasha Ki Aasha","cat":"Cafe","lat":11.930356500000002,"lng":79.83139539999999},{"name":"Surguru","cat":"Lunch","lat":11.9422576,"lng":79.8298374},{"name":"Hotel Madurai Veedu","cat":"Lunch","lat":11.9391825,"lng":79.8322376},{"name":"The Sprout","cat":"Lunch","lat":12.0154106,"lng":79.8069694},{"name":"Viji Tiffen Centre","cat":"Lunch","lat":11.9667953,"lng":79.8374711},{"name":"Villa Shanti","cat":"Dinner","lat":11.9296296,"lng":79.8331082},{"name":"Maison Perumal","cat":"Dinner","lat":11.9404489,"lng":79.8315714},{"name":"Canteen 18","cat":"Dinner","lat":11.933585,"lng":79.83158929999999},{"name":"Hotel Atithi","cat":"Dinner","lat":11.9421441,"lng":79.830922},{"name":"Ende Nadu","cat":"Dinner","lat":11.9402058,"lng":79.8342433},{"name":"The Groves","cat":"Dinner","lat":11.9914883,"lng":79.8225145},{"name":"Goubert Market","cat":"Shopping","lat":11.9353701,"lng":79.828002},{"name":"Hidesign","cat":"Shopping","lat":11.935632100000001,"lng":79.8313433},{"name":"Boutique d'Auroville","cat":"Shopping","lat":12.0038776,"lng":79.8005032},{"name":"Casablanca","cat":"Shopping","lat":11.93595,"lng":79.8312766},{"name":"Kalki","cat":"Shopping","lat":11.936065600000001,"lng":79.831107},{"name":"Pondicherry Gate (entrance)","cat":"Area","lat":11.9321935,"lng":79.81569329999999},{"name":"White Town (French Quarter)","cat":"Area","lat":11.9283798,"lng":79.8336641},{"name":"Beach Road (Promenade)","cat":"Area","lat":11.9324673,"lng":79.8358764},{"name":"Pondicherry Bus Stand","cat":"Area","lat":11.9325271,"lng":79.8158978},{"name":"Puducherry Railway Station","cat":"Area","lat":11.9251138,"lng":79.8278739},{"name":"Auroville","cat":"Area","lat":12.0038196,"lng":79.8011014},{"name":"Mission Street","cat":"Area","lat":11.9353053,"lng":79.831128}],"minutes":[[0,22,30,20,22,30,28,20,20,19,19,18,20,23,29,19,16,19,18,18,20,21,23,15,21,21,17,20,18,17,22,19,19,18,19,14,19,18,12,18,18,15,21,22,15,19,13,18],[22,0,24,19,21,24,23,6,41,6,6,7,4,18,23,31,27,5,5,26,9,4,2,28,3,3,8,6,39,16,2,8,4,8,7,29,7,6,33,6,6,11,2,4,11,6,34,6],[28,26,0,34,35,0,8,26,47,23,25,24,24,11,9,36,41,23,25,40,28,23,25,41,22,23,27,26,45,30,24,27,24,28,26,40,27,26,38,26,26,22,23,26,22,22,40,25],[19,17,32,0,7,32,31,14,32,19,15,17,15,26,31,30,13,17,15,11,16,16,18,14,18,16,11,13,30,4,17,12,15,11,12,15,16,14,22,14,14,17,17,16,17,19,24,14],[21,19,34,6,0,34,33,16,29,21,17,19,17,28,33,32,9,19,17,8,18,18,20,10,20,18,13,15,26,5,19,14,17,13,14,11,17,16,19,16,16,19,19,18,19,21,20,16],[28,26,0,34,35,0,8,26,47,23,25,24,24,11,9,36,41,23,25,40,28,23,25,41,22,23,27,26,45,30,24,27,24,28,26,40,27,26,38,26,26,22,23,26,22,22,40,25],[27,24,8,32,34,8,0,24,45,21,24,23,23,11,8,35,40,22,24,38,27,22,24,39,20,22,25,25,43,29,23,26,23,26,25,39,25,24,37,24,24,20,22,24,20,21,38,24],[21,4,25,15,17,25,23,0,39,7,2,7,3,18,24,31,22,5,4,21,5,4,5,23,6,3,4,2,37,11,5,3,4,4,2,25,5,2,31,2,2,11,5,3,11,6,32,2],[22,39,47,31,28,47,45,37,0,36,36,35,37,41,46,28,20,36,35,22,37,38,40,19,38,38,34,37,5,31,39,36,36,35,36,18,36,35,7,35,35,32,38,39,32,36,8,35],[18,7,21,19,21,21,20,7,37,0,6,3,5,15,20,27,26,3,6,25,9,4,6,28,3,4,8,7,34,15,5,8,5,9,7,29,6,7,28,7,7,7,4,7,7,1,30,6],[20,3,24,16,17,24,23,2,39,6,0,7,1,18,23,31,23,4,4,22,6,3,5,24,5,3,5,3,37,12,4,4,3,4,3,25,4,4,30,4,4,11,4,3,11,6,32,3],[16,9,22,18,20,22,21,9,34,4,8,0,7,16,21,25,26,4,6,25,10,6,8,27,7,6,7,10,32,15,7,9,7,8,9,28,8,8,26,8,8,4,6,9,4,5,27,7],[20,2,23,16,17,23,22,3,38,5,1,6,0,17,22,30,23,3,2,22,6,2,3,24,4,2,5,3,36,12,3,4,1,5,3,25,4,3,30,3,3,10,3,2,10,5,31,3],[27,25,16,33,34,16,17,25,46,21,24,23,23,0,17,35,40,22,24,39,27,22,24,40,21,22,26,25,43,29,23,26,23,27,25,39,26,25,37,25,25,20,22,25,20,21,39,24],[27,25,9,32,34,9,8,25,45,21,24,23,23,11,0,35,40,22,24,39,27,22,24,40,21,22,26,25,43,29,23,26,23,27,25,39,26,25,37,25,25,20,22,25,20,21,38,24],[21,32,37,30,32,37,36,30,28,27,29,26,30,31,36,0,26,27,28,28,29,29,31,25,29,29,27,29,26,27,30,29,29,28,29,24,28,27,22,27,28,23,29,32,23,27,23,28],[18,25,40,12,9,40,39,22,20,27,23,25,23,34,39,26,0,25,23,2,24,24,26,2,26,24,19,21,18,12,25,20,23,19,20,3,24,22,10,22,22,25,25,24,25,27,12,22],[18,5,22,18,19,22,21,4,36,3,4,3,3,16,21,27,25,0,3,24,6,2,4,26,3,2,7,5,34,14,3,5,3,6,5,27,4,3,28,3,3,6,2,5,6,2,29,3],[18,4,24,15,17,24,23,4,37,5,3,5,3,18,23,29,23,3,0,22,4,2,5,24,5,3,5,4,35,12,4,4,1,5,4,25,2,2,28,2,2,9,4,4,9,4,30,1],[19,23,38,10,7,38,37,20,21,25,21,24,21,32,37,27,2,23,22,0,23,23,24,3,25,22,18,20,19,10,24,19,22,18,19,4,22,20,12,20,20,23,23,23,23,25,13,20],[15,8,25,14,16,25,24,6,34,6,6,4,6,19,24,26,22,6,5,21,0,7,9,23,8,7,3,6,31,11,8,5,6,4,5,24,5,4,25,4,4,7,8,8,7,6,26,4],[20,3,22,16,18,22,21,3,38,4,3,5,2,16,21,29,24,2,3,23,5,0,3,25,3,0,5,4,36,13,2,5,2,5,4,26,4,3,30,3,3,9,2,3,9,4,31,2],[21,1,24,17,19,24,23,4,40,6,3,7,1,18,23,31,25,4,3,24,7,3,0,26,4,3,6,4,38,13,3,6,2,6,4,27,5,4,31,4,4,10,3,2,10,5,33,4],[16,26,41,12,10,41,39,23,19,27,23,26,24,35,40,24,1,25,24,3,25,25,27,0,27,25,20,22,16,12,26,21,24,20,21,1,24,23,9,22,22,26,26,25,26,27,10,23],[20,6,21,19,21,21,20,6,39,3,6,5,5,15,20,29,27,4,5,26,9,4,5,28,0,3,8,6,37,15,5,8,4,8,7,29,7,6,30,6,6,9,4,6,9,2,32,6],[20,3,22,16,18,22,21,3,38,4,3,5,2,16,21,29,24,2,2,23,6,0,3,25,3,0,5,3,36,13,2,5,1,5,4,26,4,3,30,3,3,9,2,3,9,4,31,3],[17,6,26,11,13,26,25,3,35,7,4,6,4,20,26,27,19,6,5,18,6,6,7,20,8,5,0,3,33,8,7,2,5,1,2,21,5,3,27,3,3,8,7,6,8,8,28,3],[19,5,25,14,15,25,24,2,38,7,2,7,3,19,24,30,21,5,4,20,4,4,6,22,6,4,3,0,36,10,5,1,3,2,2,23,5,2,30,2,2,11,5,5,11,7,31,2],[20,37,45,29,26,45,43,35,5,34,34,33,35,39,44,26,18,34,33,20,35,36,38,17,36,36,32,35,0,29,37,34,34,33,34,16,34,33,5,33,33,30,36,37,30,35,6,33],[16,13,29,4,6,29,28,10,31,15,11,14,12,23,28,27,11,13,12,10,13,13,14,13,15,12,8,10,29,0,14,9,12,8,9,14,12,10,21,10,10,14,14,13,14,15,23,10],[21,3,23,17,19,23,21,4,39,5,4,6,2,17,22,30,25,3,4,24,7,2,1,26,4,1,6,5,37,14,0,6,3,6,5,27,5,4,31,4,4,9,1,3,9,4,32,4],[18,6,26,12,14,26,25,3,37,8,4,8,4,20,25,29,20,5,4,19,4,5,7,21,7,5,2,1,35,9,6,0,3,2,1,22,5,2,28,2,2,10,6,5,10,8,30,2],[19,4,24,16,17,24,23,3,37,6,2,5,2,18,23,30,23,3,1,22,4,2,5,24,5,3,5,3,35,12,4,4,0,4,3,25,3,2,29,2,2,9,4,4,9,5,30,1],[18,6,26,12,14,26,25,3,36,9,4,7,4,20,26,28,20,6,5,18,5,5,7,21,8,5,1,2,34,8,6,2,4,0,2,22,5,3,28,3,3,10,6,6,10,8,29,3],[19,5,25,13,15,25,24,2,37,7,3,8,3,19,24,29,21,5,4,19,5,4,6,22,6,4,2,2,35,9,5,1,4,2,0,23,5,3,29,3,3,11,5,4,11,7,30,3],[16,27,41,13,11,41,40,24,18,29,24,27,25,35,40,24,3,27,25,4,26,26,28,1,28,26,21,23,16,13,27,22,25,21,22,0,25,24,8,23,23,26,27,26,26,29,10,24],[16,9,26,16,18,26,25,7,35,6,7,5,7,20,25,27,24,6,4,22,7,8,10,25,8,8,5,7,32,12,9,7,7,6,7,26,0,5,26,5,5,8,8,10,8,6,27,6],[20,4,24,15,17,24,23,2,39,6,1,7,2,18,23,31,23,4,4,22,6,3,5,24,5,3,4,2,37,12,4,4,4,4,3,25,4,0,31,4,4,11,4,4,11,6,32,3],[14,31,39,21,18,39,37,29,7,28,28,27,29,33,38,22,10,28,27,12,29,30,32,9,30,30,26,29,5,21,31,28,28,27,28,8,28,27,0,27,27,24,30,31,24,28,1,27],[18,4,24,14,16,24,23,2,36,7,2,6,2,18,24,28,22,3,2,21,3,3,5,23,6,3,3,2,34,11,4,2,2,3,3,24,3,0,28,0,0,9,4,4,9,6,29,0],[18,4,24,14,16,24,23,2,36,7,2,6,2,18,24,28,22,3,2,21,3,3,5,23,6,3,3,2,34,11,5,2,2,3,3,24,3,0,28,0,0,9,4,5,9,6,29,0],[17,9,23,19,21,23,22,9,35,5,9,4,8,17,22,26,26,5,7,25,10,7,9,28,7,7,8,10,33,15,8,10,7,8,9,29,8,8,27,8,8,0,7,9,0,5,28,8],[20,3,22,18,19,22,21,5,39,4,4,5,3,16,21,29,25,2,4,24,8,2,2,26,2,2,7,5,36,14,1,6,3,7,5,28,6,5,30,5,5,9,0,3,9,4,32,4],[22,2,25,17,19,25,24,3,41,7,3,8,2,19,24,32,24,5,4,23,8,4,3,26,5,4,6,5,39,13,3,5,3,6,4,27,6,5,32,5,5,12,3,0,12,6,34,5],[17,9,23,19,21,23,22,9,35,5,9,4,8,17,22,26,26,5,7,25,10,7,9,28,7,7,8,10,33,15,8,9,7,8,9,29,8,8,27,8,8,0,7,9,0,5,28,8],[18,6,21,19,21,21,20,6,37,1,6,3,5,15,20,27,26,3,6,25,9,4,6,28,2,4,8,7,34,15,5,8,5,8,7,29,6,6,28,6,6,7,4,6,7,0,30,6],[15,32,40,22,20,40,39,30,8,30,30,28,30,34,39,23,12,29,29,13,30,31,33,10,32,31,28,30,6,22,32,29,30,28,29,9,29,28,1,28,28,26,31,32,26,30,0,28],[18,4,24,15,16,24,23,3,37,6,2,5,3,18,23,29,22,3,1,21,3,2,5,23,5,4,4,2,34,11,5,2,1,3,3,24,3,0,28,0,0,9,4,4,9,6,29,0]],"km":[[0,7.7,12.8,10.2,11.4,12.8,12,7.2,9,7.8,7.1,7.3,7.2,11.1,11.7,10.2,8.5,7.6,6.8,9,6.9,8.2,7.9,8,8.5,8.1,6.9,7.2,8.6,8.7,7.7,7.3,7.1,7,7.4,7.7,6.8,6.8,6.6,6.8,6.8,6.1,8.2,7.7,6.1,7.9,6.8,6.8],[7.7,0,9.3,7.3,8.5,9.3,8.5,1.4,16.5,1.5,1.3,1.8,0.8,7.6,8.2,12.4,11.7,1,1.2,11.3,1.9,0.6,0.5,12.1,0.8,0.6,2.1,1.6,16,5,0.4,2,1,2.1,1.8,12.5,1.5,1.3,14,1.3,1.3,3.3,0.5,0.8,3.3,1.4,14.2,1.2],[11.9,10.1,0,14.9,16.1,0,2.5,10.2,20.7,9.1,10.1,9.8,9.8,3.7,2.7,16.6,19.3,9.5,10,18.9,10.7,9.4,9.8,19.7,9,9.4,10.6,10.4,20.3,13.4,9.6,10.8,9.8,10.8,10.6,19.4,10.3,10.1,18.2,10.1,10.1,8.6,9.4,10.1,8.6,9,18.5,10],[9,6.1,14.5,0,2.7,14.5,13.7,5.3,13.2,6.6,5.4,6.2,5.6,12.7,13.4,13.8,5.9,6,5.3,5.5,5.2,6,6.3,6.3,6.7,5.9,4.4,4.8,12.7,1.4,6.1,4.6,5.5,4.4,4.8,6.7,5.2,5.2,10.2,5.1,5.1,7.7,6.3,5.9,7.7,6.8,10.4,5.2],[10.5,7.6,16,2.5,0,16,15.2,6.8,11,8.1,6.9,7.7,7.1,14.3,14.9,15.3,3.7,7.6,6.8,3.3,6.7,7.5,7.8,4.2,8.3,7.5,5.9,6.3,10.6,2.9,7.6,6.2,7,5.9,6.3,4.5,6.7,6.7,8,6.7,6.6,9.3,7.8,7.4,9.3,8.4,8.2,6.7],[11.9,10.1,0,14.9,16.1,0,2.5,10.2,20.7,9.1,10.1,9.8,9.8,3.7,2.7,16.6,19.3,9.5,10,18.9,10.7,9.4,9.8,19.7,9,9.4,10.6,10.4,20.3,13.4,9.6,10.8,9.8,10.8,10.6,19.4,10.3,10.1,18.2,10.1,10.1,8.6,9.4,10.1,8.6,9,18.5,10],[11.1,9.2,2.5,14,15.2,2.5,0,9.3,19.8,8.3,9.2,8.9,8.9,4.3,1.8,15.7,18.4,8.6,9.1,18,9.8,8.5,8.9,18.8,8.1,8.5,9.7,9.5,19.4,12.5,8.7,9.9,8.9,9.9,9.7,18.5,9.4,9.2,17.4,9.2,9.2,7.7,8.5,9.2,7.7,8.1,17.6,9.2],[7,0.9,9.8,6.1,7.4,9.8,8.9,0,15.7,1.9,0.3,2.1,0.6,8,8.7,11.7,10.5,1.3,0.8,10.2,0.8,0.9,1.2,11,1.7,0.9,1,0.5,15.3,3.8,1,0.9,0.8,0.9,0.5,11.3,0.9,0.5,13.3,0.4,0.4,3.6,1.2,0.7,3.6,1.8,13.5,0.5],[10.1,15.5,20.6,12.9,11,20.6,19.8,15,0,15.6,14.9,15.1,15.1,18.9,19.5,11.4,7.3,15.4,14.6,7.8,14.7,16,15.7,6.8,16.3,16,14.7,15,1.3,13.4,15.5,15.1,14.9,14.9,15.2,6.5,14.6,14.6,2.4,14.6,14.6,14,16,15.5,14,15.7,2.4,14.6],[6.8,1.8,8.7,7.5,8.7,8.7,7.9,1.9,15.6,0,1.8,0.9,1.5,6.9,7.6,11.5,11.9,0.6,1.7,11.5,2.4,1.1,1.5,12.3,0.7,1.1,2.2,2.2,15.1,5.2,1.3,2.6,1.5,2.4,2.3,12.7,1.3,1.8,13.1,1.8,1.8,2.4,1.1,1.9,2.4,0.2,13.3,1.8],[6.4,0.8,9.6,6.3,7.5,9.6,8.8,0.3,15.1,1.8,0,2,0.4,7.9,8.5,11.1,10.7,1.2,0.7,10.3,1.1,0.8,1.1,11.1,1.6,0.8,1.2,0.7,14.7,4,0.9,1.1,0.7,1.1,0.8,11.5,0.8,0.6,12.7,0.6,0.6,3.5,1.1,0.6,3.5,1.7,12.9,0.5],[6,2.5,9.3,7.5,8.7,9.3,8.4,2.6,14.8,1.4,2.4,0,2.2,7.5,8.1,10.7,11.9,1.2,1.7,11.5,2.2,1.8,2.1,12.3,2.1,1.7,2.2,2.5,14.3,5.1,1.9,2.6,2,2.4,2.7,13.4,1.9,2.1,12.3,2.1,2.1,1.6,1.8,2.5,1.6,1.5,12.5,2.1],[6.3,0.4,9.4,6.5,7.7,9.4,8.5,0.6,15.1,1.5,0.3,1.7,0,7.6,8.3,11.1,10.9,0.9,0.6,10.5,1.1,0.5,0.8,11.3,1.3,0.5,1.4,0.9,14.7,4.2,0.6,1.3,0.3,1.3,1,11.7,0.7,0.5,12.6,0.5,0.5,3.2,0.8,0.5,3.2,1.4,12.9,0.5],[12.8,10.9,6.4,15.7,16.9,6.4,7.1,11,21.5,10,10.9,10.6,10.6,0,6.8,17.4,20.1,10.3,10.8,19.7,11.5,10.2,10.6,20.5,9.8,10.2,11.4,11.3,21.1,14.2,10.4,11.6,10.6,11.6,11.4,20.2,11.1,10.9,19.1,10.9,10.9,9.4,10.2,11,9.4,9.9,19.3,10.9],[10.8,9,2.7,13.8,15,2.7,1.8,9.1,19.6,8,9,8.6,8.7,4.1,0,15.5,18.2,8.4,8.9,17.8,9.5,8.3,8.6,18.6,7.9,8.3,9.5,9.3,19.2,12.3,8.4,9.7,8.7,9.7,9.5,18.3,9.2,9,17.1,9,9,7.5,8.3,9,7.5,7.9,17.4,8.9],[11.3,11.6,16.5,14,15.3,16.5,15.7,11,11.4,11.5,10.9,11,11.1,14.8,15.4,0,13.1,11.4,10.7,13.6,10.7,11.9,12.2,12.6,12.2,11.9,10.7,11,10.9,12.5,12,11.2,10.9,10.9,11.2,12.3,10.6,10.6,10.3,10.6,10.6,9.9,11.9,11.6,9.9,11.6,10.5,10.6],[9.5,10.8,19.2,5.7,3.7,19.2,18.4,10,7.3,11.3,10.1,10.9,10.3,17.5,18.1,13.1,0,10.8,10,0.6,9.9,10.7,11,0.4,11.4,10.6,9.1,9.5,6.8,6.1,10.8,9.4,10.2,9.1,9.5,0.8,9.9,9.9,4.3,9.8,9.8,12.5,11,10.6,12.5,11.6,4.5,9.9],[6.7,1.3,9.1,7.2,8.4,9.1,8.2,1.3,15.5,1.1,1.2,0.8,0.9,7.3,8,11.4,11.6,0,0.8,11.2,1.5,0.5,0.9,12,1,0.5,2.1,1.3,15,4.9,0.7,1.4,0.7,2,1.7,12.4,0.8,0.9,13,0.9,0.9,2.3,0.5,1.3,2.3,0.7,13.2,0.8],[5.9,0.9,9.6,6.2,7.4,9.6,8.8,0.8,14.7,1.1,0.7,1.2,0.6,7.8,8.5,10.7,10.6,0.8,0,10.2,1,0.6,1.1,11,1.6,0.8,1,0.8,14.2,3.9,0.9,1,0.2,1.2,1.2,11.4,0.3,0.4,12.2,0.4,0.4,2.8,1.1,0.9,2.8,1.1,12.4,0.3],[10.1,10.4,18.8,5.3,3.3,18.8,18,9.6,7.8,10.9,9.7,10.5,9.9,17.1,17.7,13.6,0.6,10.4,9.6,0,9.5,10.3,10.6,1,11.1,10.3,8.7,9.1,7.4,5.7,10.4,9,9.8,8.7,9.1,1.4,9.6,9.5,4.8,9.5,9.4,12.1,10.6,10.2,12.1,11.2,5.1,9.5],[5.4,1.9,9.9,6.2,7.4,9.9,9.1,1.3,14.2,1.7,1.2,1.2,1.4,8.1,8.8,10.2,10.6,1.5,1,10.2,0,2.1,2.1,11,2.4,2,0.9,1.4,13.7,3.8,1.9,1.3,1.2,1.1,1.4,11.3,0.9,0.9,11.7,0.9,0.9,2.2,2.1,1.9,2.2,1.8,11.9,1],[7.3,0.8,9,6.8,8,9,8.2,0.9,16,1.2,0.8,1.4,0.5,7.2,7.9,11.9,11.2,0.6,0.7,10.8,1.2,0,0.5,11.6,1,0,1.6,1.1,15.6,4.5,0.3,1.5,0.5,1.6,1.3,12,1,0.7,13.6,0.7,0.7,2.9,0.5,0.8,2.9,1.1,13.8,0.6],[6.6,0.3,9.5,6.8,8.1,9.5,8.7,0.8,15.4,1.7,0.7,1.9,0.3,7.8,8.4,12.5,11.2,1.1,0.8,10.8,1.4,0.7,0,11.7,0.9,0.7,1.7,1.2,15,4.5,0.6,1.6,0.5,1.6,1.2,12,1.1,0.9,12.9,0.9,0.9,3.4,0.6,0.3,3.4,1.6,13.2,0.8],[9.1,11.2,19.6,6.1,4.2,19.6,18.8,10.4,6.8,11.7,10.6,11.3,10.7,17.9,18.5,12.6,0.4,11.2,10.4,1,10.3,11.1,11.4,0,11.9,11.1,9.5,10,6.4,6.6,11.2,9.8,10.6,9.6,9.9,0.4,10.4,10.3,3.9,10.3,10.3,12.9,11.4,11,12.9,12,4.1,10.3],[7.5,1.7,8.6,7.6,8.9,8.6,7.7,1.7,16.3,0.7,1.6,1.6,1.4,6.8,7.5,12.2,12,1,1.6,11.6,2.2,1,1.3,12.5,0,0.9,2.5,2,15.8,5.3,1.1,2.4,1.3,2.4,2.1,12.8,1.9,1.7,13.8,1.7,1.7,3.1,1,1.7,3.1,0.6,14,1.6],[7.3,0.8,9,6.8,8,9,8.1,0.9,16,1.2,0.8,1.3,0.5,7.2,7.9,11.9,11.2,0.6,0.7,10.8,1.4,0,0.5,11.6,0.9,0,1.6,1.1,15.6,4.5,0.3,1.5,0.5,1.5,1.3,12,1,0.8,13.6,0.8,0.8,2.9,0.4,0.8,2.9,1,13.8,0.7],[6,1.8,10.5,5.3,6.5,10.5,9.6,1,14.7,2.2,1.2,1.8,1.3,8.7,9.4,10.7,9.7,1.8,1,9.3,0.9,1.7,2,10.1,2.5,1.7,0,0.6,14.3,2.9,1.8,0.4,1.2,0.2,0.5,10.5,1,0.9,12.3,0.9,0.9,2.8,2,1.6,2.8,2.4,12.5,0.9],[6.5,1.3,10,5.7,6.9,10,9.2,0.5,15.3,2.2,0.7,2.1,0.9,8.3,8.9,11.3,10.1,1.3,0.8,9.7,0.8,1.2,1.5,10.5,2,1.2,0.6,0,14.8,3.4,1.3,0.2,0.8,0.5,0.5,10.9,0.9,0.4,12.8,0.4,0.4,3.4,1.5,1.2,3.4,2.1,13,0.5],[9.7,15.1,20.2,12.5,10.6,20.2,19.3,14.5,1.3,15.1,14.4,14.7,14.6,18.4,19.1,10.9,6.8,15,14.2,7.4,14.3,15.5,15.3,6.4,15.8,15.5,14.3,14.5,0,13,15.1,14.7,14.4,14.4,14.8,6,14.1,14.1,1.9,14.1,14.1,13.5,15.5,15.1,13.5,15.3,1.9,14.2],[7.8,4.7,13.3,1.7,3,13.3,12.4,3.8,13.4,5.2,4,4.7,4.2,11.5,12.2,12.5,6.1,4.6,3.9,5.8,3.8,4.5,4.8,6.6,5.3,4.5,2.9,3.4,13,0,4.6,3.2,4.1,3,3.4,6.9,3.8,3.7,10.4,3.7,3.7,6.5,4.8,4.4,6.5,5.4,10.6,3.8],[7.4,0.6,9.1,7,8.2,9.1,8.3,1.1,16.1,1.3,1,1.5,0.4,7.3,8,12,11.4,0.7,0.9,11,1.5,0.3,0.3,11.8,0.7,0.3,1.8,1.3,15.7,4.6,0,1.7,0.6,1.7,1.5,12.1,1.2,1,13.7,1,1,3,0.2,0.6,3,1.2,13.9,0.9],[6.3,1.7,10.4,5.5,6.8,10.4,9.6,0.9,15.1,2.6,0.9,2.2,1.2,8.7,9.3,11.1,9.9,1.4,1,9.5,1,1.6,1.9,10.4,2.4,1.6,0.4,0.2,14.7,3.2,1.7,0,0.9,0.4,0.4,10.7,1,0.6,12.6,0.5,0.5,3.2,1.9,1.5,3.2,2.5,12.9,0.6],[6.1,0.9,9.6,6.5,7.7,9.6,8.7,0.6,14.9,1.7,0.5,1.5,0.5,7.8,8.4,10.9,10.9,0.7,0.2,10.5,0.9,0.5,1,11.3,1.5,0.7,1.3,0.8,14.5,4.2,0.8,0.9,0,1.2,1,11.7,0.5,0.3,12.4,0.3,0.4,3,1,0.9,3,1.6,12.7,0.3],[6.1,1.7,10.4,5.3,6.5,10.4,9.6,0.9,14.9,2.4,1.1,1.9,1.3,8.7,9.3,10.9,9.7,1.7,1.2,9.3,1.2,1.6,1.9,10.1,2.4,1.6,0.2,0.5,14.4,3,1.7,0.4,1.1,0,0.4,10.5,1,0.8,12.4,0.8,0.8,3,1.9,1.5,3,2.5,12.7,0.9],[6.5,1.3,10.1,5.7,6.9,10.1,9.3,0.6,15.3,2.3,0.7,2.3,0.9,8.4,9,11.2,10.1,1.7,1.3,9.7,1.3,1.3,1.6,10.5,2.1,1.3,0.5,0.5,14.8,3.4,1.4,0.4,1.2,0.4,0,10.9,1.2,0.9,12.8,0.8,0.8,3.3,1.6,1.1,3.3,2.2,13,0.9],[8.7,11.6,19.3,6.5,4.5,19.3,18.4,10.8,6.5,12.1,10.9,11.7,11.1,17.5,18.2,12.3,0.8,11.5,10.8,1.4,10.7,11.5,11.8,0.4,12.2,11.4,9.9,10.3,6.1,6.9,11.6,10.1,11,9.9,10.3,0,10.7,10.7,3.5,10.6,10.6,12.6,11.7,11.4,12.6,12.3,3.7,10.7],[5.6,2.1,10.1,6.5,7.7,10.1,9.3,1.5,14.4,1.6,1.4,1.2,1.6,8.3,9,10.4,10.9,1.5,1,10.5,1.3,2,2.4,11.3,2.3,2,1.3,1.5,13.9,4.2,2.2,1.7,1.4,1.4,1.8,11.7,0,1.1,11.9,1.1,1.1,2.4,2,2.1,2.4,1.8,12.1,1.2],[6.4,1,9.7,6.3,7.5,9.7,8.8,0.4,15.2,1.8,0.3,2,0.5,7.9,8.6,11.2,10.7,1.3,0.7,10.3,1.1,0.8,1.1,11.1,1.6,0.8,1.1,0.7,14.7,4,0.9,1,0.7,1.1,0.8,11.5,0.8,0,12.7,0.6,0.6,3.6,1.1,1,3.6,1.7,12.9,0.5],[7.6,13,18.2,9.9,8,18.2,17.3,12.5,2.4,13.1,12.4,12.6,12.6,16.4,17.1,10.3,4.3,13,12.2,4.8,12.2,13.5,13.2,3.8,13.8,13.5,12.2,12.5,1.9,10.4,13,12.7,12.4,12.4,12.7,3.5,12.1,12.1,0,12.1,12.1,11.5,13.5,13.1,11.5,13.2,0.2,12.1],[5.9,1,9.7,6,7.2,9.7,8.9,0.5,14.7,1.9,0.3,1.7,0.5,7.9,8.6,10.7,10.4,0.9,0.4,10,0.5,0.7,1.2,10.8,1.7,0.9,0.9,0.4,14.3,3.7,1,0.5,0.3,0.8,0.8,11.2,0.5,0,12.2,0,0,2.8,1.2,1,2.8,1.8,12.5,0.1],[5.9,1,9.7,6,7.2,9.7,8.9,0.5,14.7,1.9,0.3,1.7,0.5,8,8.6,10.7,10.4,0.9,0.4,10,0.5,0.7,1.2,10.8,1.7,0.9,0.9,0.4,14.3,3.7,1,0.5,0.4,0.8,0.8,11.2,0.5,0,12.2,0,0,2.8,1.2,1,2.8,1.8,12.5,0.1],[6.4,2.7,9.6,7.7,8.9,9.6,8.8,2.8,15.1,1.6,2.7,1.2,2.4,7.9,8.5,11,12.1,1.5,2,11.7,2.5,2,2.4,12.5,2.3,2,2.5,2.7,14.7,5.4,2.2,2.9,2.2,2.6,3,13.8,2.2,2.3,12.7,2.3,2.3,0,2,2.7,0,1.8,12.9,2.3],[7.2,0.6,9,7.1,8.4,9,8.1,1.3,16,1.1,1.1,1.3,0.9,7.2,7.9,11.9,11.6,0.5,1.1,11.2,1.7,0.5,0.3,12,0.5,0.4,2,1.5,15.6,4.8,0.2,1.9,0.8,1.9,1.6,12.3,1.4,1.2,13.5,1.2,1.2,2.9,0,0.6,2.9,1,13.8,1.1],[6.8,0.4,9.7,6.8,8,9.7,8.8,0.7,15.6,1.9,0.6,2,0.5,7.9,8.6,12.6,11.2,1.3,0.9,10.8,1.6,0.8,0.7,11.6,1,0.8,1.6,1.2,15.1,4.4,0.7,1.5,0.7,1.5,1.1,12,1.2,1,13.1,1,1,3.6,0.7,0,3.6,1.7,13.3,0.9],[6.4,2.7,9.6,7.7,8.9,9.6,8.8,2.8,15.1,1.6,2.7,1.2,2.4,7.8,8.5,11,12.1,1.5,2,11.7,2.4,2,2.4,12.5,2.3,2,2.4,2.7,14.7,5.4,2.2,2.9,2.2,2.6,3,13.8,2.1,2.3,12.7,2.3,2.3,0,2,2.7,0,1.8,12.9,2.3],[6.9,1.7,8.6,7.6,8.9,8.6,7.7,1.8,15.7,0.2,1.7,1,1.4,6.8,7.5,11.6,12.1,0.7,1.6,11.7,2.3,1,1.4,12.5,0.6,1,2.4,2,15.3,5.3,1.2,2.4,1.4,2.5,2.2,12.8,1.3,1.7,13.2,1.7,1.7,2.6,1,1.7,2.6,0,13.5,1.6],[7.8,13.3,18.4,10.2,8.2,18.4,17.5,12.7,2.4,13.3,12.6,12.9,12.8,16.6,17.3,10.5,4.5,13.2,12.4,5.1,12.5,13.7,13.5,4.1,14,13.7,12.5,12.7,1.9,10.6,13.3,12.9,12.6,12.6,13,3.7,12.3,12.3,0.2,12.3,12.3,11.7,13.7,13.3,11.7,13.5,0,12.4],[6,0.9,9.7,6.1,7.3,9.7,8.8,0.5,14.8,1.8,0.4,1.6,0.6,7.9,8.5,10.8,10.5,0.8,0.3,10.1,0.6,0.6,1.2,10.9,1.6,0.9,0.9,0.5,14.3,3.8,1,0.6,0.3,0.9,0.9,11.3,0.4,0.1,12.3,0.1,0.1,3.1,1.1,0.9,3.1,1.7,12.5,0]]}